City_ID,City,Lat,Lng,Max Temp,Humidity,Cloudiness,Wind Speed,Country,Date
0,aasiaat,68.7098,-52.8699,-22.28,96,100,1.91,GL,1738716350
1,bryanka,48.511,38.6722,-3.7,87,83,4.86,UA,1738716351
2,itaocara,-21.6692,-42.0761,23.71,91,100,1.78,BR,1738716353
3,grytviken,-54.2811,-36.5092,3.31,86,53,9.59,GS,1738716354
4,adamstown,-25.066,-130.1015,25.2,77,5,5.5,PN,1738716355
5,la'ie,21.6477,-157.9253,24.47,75,66,1.34,US,1738716356
6,waitangi,-43.9535,-176.5597,15.46,75,81,4.02,NZ,1738716357
7,la passe,45.5549,-0.8967,6.87,75,4,1.36,FR,1738716359
8,merizo village,13.2658,144.6691,29.43,82,82,7.81,GU,1738716360
9,bredasdorp,-34.5322,20.0403,19.14,71,25,3.37,ZA,1738716361
10,port lincoln,-34.7333,135.8667,19.94,61,11,7.4,AU,1738716362
11,i-n-salah,27.1935,2.4607,12.53,21,0,7.54,DZ,1738716364
12,blackmans bay,-43.0167,147.3167,19.18,45,7,0.45,AU,1738716365
13,ilebo,-4.3167,20.5833,21.94,85,100,0.81,CD,1738716366
14,tomar,39.602,-8.4092,7.94,83,9,1.35,PT,1738716367
15,taltal,-25.4,-70.4833,19.27,88,32,1.41,CL,1738716019
16,utrik,11.2278,169.8474,26.64,80,16,9.56,MH,1738716370
17,atafu village,-8.5421,-172.5159,28.65,67,9,5.94,TK,1738715906
18,praia da vitoria,38.7333,-27.0667,16.14,100,75,6.72,PT,1738716372
19,papatowai,-46.5619,169.4708,18.62,54,100,2.28,NZ,1738716373
20,afaahiti,-17.75,-149.2833,26.61,75,31,3.8,PF,1738715896
21,yellowknife,62.456,-114.3525,-11.44,93,75,4.47,CA,1738715809
22,edinburgh of the seven seas,-37.0676,-12.3116,16.22,74,29,5.66,SH,1738716377
23,puerto deseado,-47.7503,-65.8938,13.69,65,87,10.31,AR,1738715643
24,sandy,40.572,-111.8606,17.99,32,100,7.2,US,1738715830
25,port-aux-francais,-49.35,70.2167,5.88,98,100,9.41,TF,1738716380
26,hermanus,-34.4187,19.2345,19.51,77,66,3.56,ZA,1738716381
27,murray,40.6669,-111.888,17.78,30,100,7.72,US,1738716383
28,margaret river,-33.95,115.0667,23.01,48,0,1.86,AU,1738716384
29,hilo,19.7297,-155.09,25.85,73,0,4.63,US,1738716385
30,alexandreia,40.6267,22.4442,6.86,91,5,0.63,GR,1738716386
31,vadso,70.0744,29.7487,-11.91,72,100,7.2,NO,1738716387
32,happy valley-goose bay,53.3168,-60.3315,-14.83,66,75,6.69,CA,1738716389
33,puerto lempira,15.2667,-83.7667,27.08,83,40,5.14,HN,1738715593
34,ust-nera,64.5667,143.2,-38.27,94,51,1.1,RU,1738716391
35,tralee,52.2704,-9.7026,5.98,76,26,5.24,IE,1738716392
36,ayacucho,-13.1583,-74.2239,12.77,76,99,2.65,PE,1738716378
37,longyearbyen,78.2186,15.6401,-3.09,68,20,13.38,SJ,1738716395
38,sosnovka,56.255,51.2842,-6.4,93,100,2.81,RU,1738716396
39,udachny,66.4167,112.4,-34.18,92,100,2.21,RU,1738716399
40,malvan,16.0667,73.4667,22.11,65,41,4.43,IN,1738716401
41,hawaiian paradise park,19.5933,-154.9731,25.73,69,0,4.63,US,1738716402
42,monteagudo,-19.8167,-63.9833,20.3,61,34,1.35,BO,1738716403
43,enewetak,11.3474,162.3373,26.8,71,80,8.81,MH,1738715863
44,isangel,-19.55,169.2667,30.06,74,75,1.03,VU,1738716405
45,puerto natales,-51.7236,-72.4875,6.28,91,75,2.1,CL,1738716406
46,vorgashor,67.5833,63.95,-17.67,95,100,2.87,RU,1738716026
47,saint-pierre,-21.3393,55.4781,26.82,83,0,3.09,RE,1738716409
48,lazaro cardenas,17.9583,-102.2,25.4,75,0,2.3,MX,1738715877
49,capao da canoa,-29.7456,-50.0097,24.73,92,1,3.02,BR,1738716380
50,chibougamau,49.9168,-74.3659,-22.21,71,20,4.12,CA,1738716412
51,albany,42.6001,-73.9662,-3.64,75,47,4.62,US,1738716360
52,bethel,41.3712,-73.414,-0.24,57,8,2.24,US,1738716322
53,hasaki,35.7333,140.8333,5.22,30,0,5.99,JP,1738716416
54,paraiso,9.8383,-83.8656,18.01,96,57,2.59,CR,1738715822
55,marang,5.2056,103.2059,24.96,82,92,1.57,MY,1738716420
56,calbuco,-41.768,-73.1273,14.56,79,7,3.28,CL,1738716421
57,greymouth,-42.4667,171.2,20.08,68,90,3.03,NZ,1738716422
58,castillos,-34.1667,-53.8333,23.95,92,72,3.77,UY,1738716073
59,guadalajara,20.6667,-103.3333,26.87,14,0,2.57,MX,1738716424
60,touros,-5.1989,-35.4608,25.69,84,100,4.7,BR,1738716425
61,mahina,-17.5065,-149.489,30.87,70,0,5.14,PF,1738716427
62,lihue,21.9789,-159.3672,24.3,50,0,8.23,US,1738715967
63,stung treng,13.5259,105.9683,21.76,65,2,3.21,KH,1738716430
64,sao joao dos patos,-6.495,-43.7022,22.83,72,83,0.6,BR,1738716432
65,igarka,67.4667,86.5833,-22.42,85,96,4.13,RU,1738716025
66,ahraura,25.0167,83.0167,17.29,42,100,1.92,IN,1738716434
67,aral,40.5156,81.2636,-5.77,71,32,2.37,CN,1738716435
68,jinan,36.6683,116.9972,-4.13,22,0,2.96,CN,1738716204
69,freetown,8.484,-13.2299,24.58,75,83,2.83,SL,1738716437
70,hazaribagh,23.9833,85.35,14.85,56,5,2.12,IN,1738716439
71,farasan,16.7022,42.1183,24.98,75,6,9.0,SA,1738716440
72,iqaluit,63.7506,-68.5145,-30.15,69,20,1.54,CA,1738716441
73,carmen de apicala,4.1473,-74.7201,25.06,77,87,1.84,CO,1738716442
74,college,64.8569,-147.8028,-10.85,77,100,0.0,US,1738716444
75,palembang,-2.9167,104.7458,25.05,94,75,2.06,ID,1738716445
76,contamana,-7.3333,-75.0167,27.04,71,79,1.36,PE,1738716446
77,puerto ayora,-0.7393,-90.3518,24.75,98,8,0.89,EC,1738716299
78,richards bay,-28.783,32.0377,25.34,80,0,6.77,ZA,1738716227
79,dongola,19.1667,30.4833,19.97,16,0,6.6,SD,1738716449
80,progreso,21.2833,-89.6667,24.17,81,58,7.65,MX,1738715862
81,johi,26.6921,67.6133,12.57,23,0,0.91,PK,1738716452
82,lodja,-3.4833,23.4333,22.17,88,100,1.09,CD,1738716453
83,prabumulih,-3.45,104.25,24.34,91,100,2.18,ID,1738716454
84,howrah,22.5892,88.3103,19.0,82,40,0.0,IN,1738716455
85,petropavlovsk-kamchatsky,53.0452,158.6483,-4.67,58,75,2.0,RU,1738716457
86,wailua homesteads,22.0669,-159.378,23.44,56,0,8.23,US,1738716458
87,byron bay,-28.65,153.6167,24.02,81,100,0.57,AU,1738716459
88,rundu,-17.9333,19.7667,19.84,87,100,0.64,NA,1738716461
89,ciudad bolivar,8.1222,-63.5497,28.49,58,100,6.2,VE,1738716462
90,east london,-33.0153,27.9116,24.95,90,100,4.77,ZA,1738715713
91,mihail kogalniceanu,44.3667,28.45,-0.85,86,0,2.68,RO,1738716466
92,aswan,24.0934,32.907,16.61,27,0,3.09,EG,1738716467
93,mananara,-16.1667,49.7667,24.03,91,100,1.17,MG,1738716468
94,san sebastian de la gomera,28.0916,-17.1133,18.2,59,0,4.12,ES,1738716261
95,mount gambier,-37.8333,140.7667,20.94,38,12,5.88,AU,1738716471
96,talnakh,69.4865,88.3972,-24.52,96,95,3.01,RU,1738716472
97,colonia,50.9333,6.95,0.36,87,75,2.06,DE,1738715951
98,carolina beach,34.0352,-77.8936,16.16,75,0,2.95,US,1738715798
99,haiku-pauwela,20.9219,-156.3051,24.59,69,20,6.69,US,1738715922
100,shimoda,34.6667,138.95,3.91,57,0,12.62,JP,1738716477
101,sos'va,59.1766,61.8558,-21.0,100,100,1.41,RU,1738716478
102,tiksi,71.6872,128.8694,-26.49,91,100,2.82,RU,1738716479
103,nyandoma,61.669,40.1991,-18.18,100,76,0.76,RU,1738716480
104,iwanai,42.9744,140.5089,-2.73,92,100,10.68,JP,1738716481
105,sao joao da barra,-21.6403,-41.0511,25.31,86,0,9.18,BR,1738716482
106,krasnyy chikoy,50.3643,108.7512,-17.72,88,100,7.5,RU,1738716484
107,pandan,14.0453,124.1694,26.34,83,85,4.57,PH,1738716485
108,arraial do cabo,-22.9661,-42.0278,24.98,88,0,4.63,BR,1738716127
109,okhotsk,59.3833,143.3,-25.73,82,38,4.58,RU,1738716029
110,invercargill,-46.4,168.35,22.23,57,100,0.45,NZ,1738716488
111,zaragoza,41.6561,-0.8773,7.25,63,0,4.02,ES,1738715930
112,zhaotong,27.3167,103.7167,1.44,97,100,2.28,CN,1738716492
113,trogir,43.5125,16.2517,5.03,33,0,2.06,HR,1738716493
114,thompson,55.7435,-97.8558,-19.91,71,20,8.23,CA,1738716494
115,fort st. john,56.2499,-120.8529,-27.06,76,20,1.54,CA,1738716304
116,nemuro,43.3236,145.575,-0.4,68,16,10.53,JP,1738716497
117,mpanda,-6.3655,31.0409,18.18,96,100,0.72,TZ,1738716498
118,grootfontein,-19.5667,18.1167,18.54,87,99,1.95,NA,1738716499
119,nizhnyaya poyma,56.1622,97.1933,-16.71,93,100,4.81,RU,1738716502
120,le vauclin,14.5452,-60.8388,26.03,73,40,4.12,MQ,1738716503
121,hotan,37.0997,79.9269,-2.32,41,100,1.37,CN,1738716157
122,berezovyy,51.6667,135.7,-16.36,94,100,3.96,RU,1738716158
123,vredendal,-31.6683,18.5012,16.07,95,8,2.38,ZA,1738716506
124,ushuaia,-54.8,-68.3,8.81,81,75,7.72,AR,1738716381
125,cabo san lucas,22.8909,-109.9124,25.17,35,0,5.66,MX,1738716472
126,chonchi,-42.6128,-73.8092,13.95,81,0,0.39,CL,1738716028
127,san rafael,-34.6177,-68.3301,24.46,30,98,3.46,AR,1738716231
128,lakatoro,-16.0999,167.4164,29.44,73,84,5.49,VU,1738716512
129,masterton,-40.9597,175.6575,24.44,26,3,2.84,NZ,1738716514
130,ushibukamachi,32.1906,130.0228,5.31,69,100,10.94,JP,1738716515
131,lebu,-37.6167,-73.65,14.94,79,6,1.41,CL,1738716516
132,hampton bays,40.869,-72.5176,1.03,58,0,5.14,US,1738716265
133,punta arenas,-53.15,-70.9167,11.06,66,0,11.32,CL,1738716518
134,fortaleza,-3.7227,-38.5247,29.07,79,75,6.17,BR,1738716311
135,patong,7.8961,98.2966,27.08,75,36,5.8,TH,1738716402
136,saint-leu,-21.15,55.2833,26.48,96,33,3.26,RE,1738716522
137,fada,7.25,4.0667,24.64,82,98,0.49,NG,1738716523
138,launceston,-41.45,147.1667,19.8,42,5,7.2,AU,1738716524
139,flying fish cove,-10.4217,105.6791,26.82,94,100,7.2,CX,1738716154
140,uturoa,-16.7333,-151.4333,28.21,69,26,4.01,PF,1738716527
141,dalton,34.7698,-84.9702,15.88,81,0,0.0,US,1738716528
142,whitehorse,60.7161,-135.0538,-14.39,81,75,1.03,CA,1738716529
143,ilulissat,69.2167,-51.1,-18.99,65,100,4.12,GL,1738716530
144,port mathurin,-19.6833,63.4167,26.95,80,2,4.01,MU,1738716532
145,mount pearl,47.5166,-52.7813,-2.7,83,20,11.83,CA,1738716079
146,mccook,40.2019,-100.6257,-5.97,63,100,3.09,US,1738716534
147,tazacorte,28.629,-17.9293,17.54,79,75,5.66,ES,1738716535
148,west island,-12.1568,96.8225,28.99,89,20,3.6,CC,1738716536
149,tarko-sale,64.9225,77.785,-24.31,100,97,2.72,RU,1738716538
150,sargatskoye,55.6101,73.4972,-3.33,97,100,2.37,RU,1738716539
151,nar'yan-mar,67.6713,53.087,-8.0,94,100,5.65,RU,1738715992
152,fale old settlement,-9.3852,-171.2468,28.74,67,8,5.82,TK,1738716541
153,inhambane,-23.865,35.3833,26.63,68,68,4.63,MZ,1738716170
154,borogontsy,62.6683,131.1683,-36.4,95,38,1.65,RU,1738716545
155,port elizabeth,-33.918,25.5701,22.4,94,100,1.79,ZA,1738716546
156,at-bashi,41.1702,75.8106,-17.92,70,59,1.37,KG,1738716547
157,westerland,54.9079,8.3033,4.01,93,100,8.23,DE,1738716166
158,lakehills,29.6047,-98.9431,24.36,74,0,4.54,US,1738716550
159,arteche,12.2645,125.4048,27.53,76,100,4.41,PH,1738716183
160,kibre mengist,5.8833,38.9833,9.09,39,100,1.51,ET,1738716552
161,jianshui,23.6363,102.8264,9.73,95,85,1.44,CN,1738716553
162,bandar labuan,5.2888,115.2692,26.2,94,20,0.0,MY,1738716554
163,trincomalee,8.5711,81.2335,27.13,73,100,5.17,LK,1738716555
164,dudinka,69.4058,86.1778,-30.04,96,65,0.98,RU,1738716557
165,saipan,15.1355,145.701,29.39,75,20,6.17,MP,1738716558
166,genhe,50.7833,121.5167,-30.84,98,82,0.29,CN,1738716559
167,villa yapacani,-17.4,-63.8333,24.61,79,18,0.72,BO,1738716560
168,ancud,-41.8697,-73.8203,13.95,76,4,0.87,CL,1738716406
169,pangkalanbuun,-2.6833,111.6167,24.84,91,100,1.04,ID,1738716563
170,bardai,11.65,7.2333,19.52,11,39,4.27,NG,1738716564
171,hadibu,12.65,54.0333,21.31,71,53,5.08,YE,1738716565
172,avarua,-21.2078,-159.775,27.03,94,100,1.03,CK,1738716566
173,antsiranana,-12.2787,49.2917,24.29,89,100,4.52,MG,1738715977
174,sittwe,20.15,92.9,18.13,54,0,3.04,MM,1738716568
175,jamestown,42.097,-79.2353,-5.2,73,100,4.63,US,1738716570
176,mahanoro,-19.9,48.8,24.66,85,100,3.14,MG,1738716571
177,beardstown,40.0176,-90.4243,0.6,61,100,2.68,US,1738716572
178,vilyuchinsk,52.9306,158.4028,-3.85,79,100,1.55,RU,1738716573
179,rouached,36.4577,6.0427,5.35,92,9,1.59,DZ,1738716574
180,tivat,42.4364,18.6961,4.96,45,0,0.0,ME,1738716575
181,ponta delgada,37.7333,-25.6667,18.44,100,100,3.6,PT,1738716577
182,bilibino,68.0546,166.4372,-42.33,96,45,1.47,RU,1738716578
183,dubbo,-32.25,148.6167,33.07,33,0,4.12,AU,1738716579
184,saldanha,-33.0117,17.9442,18.3,88,6,4.5,ZA,1738716580
185,ascension,30.2169,-90.9001,24.0,81,100,0.0,US,1738716581
186,tamanrasset,22.785,5.5228,13.95,17,0,2.06,DZ,1738716584
187,yuzhno-kurilsk,44.0306,145.8556,-1.58,75,3,8.3,RU,1738716587
188,dodge city,37.7528,-100.0171,-6.86,100,100,4.63,US,1738716335
189,pisco,-13.7,-76.2167,23.03,83,0,7.2,PE,1738716589
190,hauterive,46.0901,3.4459,-0.32,86,0,0.73,FR,1738716590
191,karratha,-20.7377,116.8463,31.83,61,6,1.23,AU,1738716591
192,ta`u,-14.2336,-169.5144,28.33,71,25,3.33,AS,1738715996
193,ust'-ilimsk,58.0006,102.6619,-24.2,86,39,4.0,RU,1738716594
194,selfoss,63.9331,-20.9971,-0.53,62,100,15.81,IS,1738716000
195,bengkulu,-3.8004,102.2655,23.8,89,100,1.67,ID,1738716596
196,howard springs,-12.497,131.047,27.21,92,100,5.37,AU,1738716008
197,sravana belgola,12.8583,76.4894,16.06,58,22,1.79,IN,1738716600
198,kurumkan,54.3,110.3,-28.41,89,48,1.91,RU,1738716602
199,cinisi,38.1562,13.1073,10.14,93,40,1.54,IT,1738716526
200,fort bragg,35.139,-79.006,17.75,68,0,0.0,US,1738716604
201,pacific grove,36.6177,-121.9166,17.06,90,100,16.99,US,1738716605
202,port alfred,-33.5906,26.891,22.88,96,100,1.34,ZA,1738716607
203,carnarvon,-24.8667,113.6333,27.07,74,7,4.1,AU,1738716608
204,novogrudok,53.6,25.8333,-3.22,97,30,1.52,BY,1738716609
205,constantia,44.1833,28.65,-0.62,69,9,5.22,RO,1738716610
206,fort wellington,6.4,-57.6,25.27,87,81,4.63,GY,1738716069
207,badger,64.8,-147.5333,-10.9,85,100,0.0,US,1738716613
208,olonkinbyen,70.9221,-8.7187,-1.75,79,88,8.81,SJ,1738716614
209,nago,26.5881,127.9761,12.02,59,100,4.78,JP,1738716615
210,san patricio,28.017,-97.5169,23.97,92,100,3.77,US,1738716617
211,rancho palos verdes,33.7445,-118.387,16.48,80,40,5.66,US,1738716619
212,hamilton,39.1834,-84.5333,4.77,66,0,3.13,US,1738716365
213,tofol,5.3248,163.0078,27.88,89,100,7.2,FM,1738716621
214,kolonia,50.9333,6.95,0.36,87,75,2.06,DE,1738716523
215,holualoa,19.6228,-155.9522,23.64,65,10,0.45,US,1738716624
216,linqiong,30.4159,103.4609,6.94,84,100,2.43,CN,1738716625
217,riverside,33.7333,-116.0508,23.36,24,0,2.06,US,1738716420
218,mount isa,-20.7333,139.5,30.87,55,99,2.57,AU,1738716627
219,beaufort west,-32.3567,22.583,21.78,55,6,2.24,ZA,1738716629
220,kenora,49.8167,-94.4337,-18.46,71,75,2.06,CA,1738716630
221,labytnangi,66.6572,66.4183,-23.17,97,100,3.39,RU,1738716631
222,nieuw amsterdam,5.8833,-55.0833,24.76,91,100,3.55,SR,1738716632
223,peniche,39.3558,-9.3811,10.81,91,10,2.3,PT,1738716634
224,piacabucu,-10.4056,-36.4344,26.14,71,0,4.31,BR,1738716635
225,broken hill,-31.95,141.4333,31.0,34,0,0.67,AU,1738716636
226,bosa,40.2993,8.4983,9.44,79,0,1.43,IT,1738716637
227,trumbull,41.3167,-80.7665,-2.47,80,100,3.6,US,1738716638
228,lycksele,64.5954,18.6735,-5.07,93,100,4.63,SE,1738716639
229,trairi,-3.2778,-39.2689,24.58,92,31,3.81,BR,1738716625
230,esmeraldas,-19.7625,-44.3139,18.9,91,100,1.5,BR,1738716642
231,kavaratti,10.5669,72.642,27.61,70,50,5.06,IN,1738716643
232,leme,-22.1856,-47.3903,22.82,94,100,0.37,BR,1738716367
233,kapuskasing,49.4169,-82.4331,-16.95,71,75,2.57,CA,1738716647
234,stanley,54.868,-1.6985,4.01,83,0,4.12,GB,1738716648
235,isafjordur,66.0755,-23.124,-2.68,72,100,12.73,IS,1738716649
236,yambio,4.5721,28.3955,24.64,39,70,1.71,SS,1738716651
237,turpan,42.9333,89.1667,-3.43,45,4,1.09,CN,1738716653
238,alice springs,-23.7,133.8833,32.75,27,3,10.8,AU,1738716654
239,tazovsky,67.4667,78.7,-27.58,100,100,2.36,RU,1738716655
240,tari,-11.1105,14.3559,18.73,91,100,1.05,AO,1738716656
241,wanxian,30.8039,108.3897,10.65,73,100,2.67,CN,1738716657
242,bafoulabe,13.8065,-10.8321,23.8,13,100,2.99,ML,1738716659
243,anadyr,64.75,177.4833,-29.72,67,5,9.0,RU,1738716660
244,boguchany,58.3814,97.4531,-24.24,100,38,1.35,RU,1738716661
245,auki,-8.7676,160.7034,31.36,60,100,1.87,SB,1738716662
246,vila velha,-20.3297,-40.2925,25.97,78,20,3.6,BR,1738716554
247,southside,33.9245,-86.0225,16.95,100,75,0.0,US,1738716665
248,ribeira grande,38.5167,-28.7,18.21,96,100,7.6,PT,1738716666
249,montrose,38.4166,-108.2673,3.55,49,52,4.25,US,1738716667
250,fortuna,40.5982,-124.1573,5.19,91,100,0.59,US,1738716668
251,pariaman,-0.619,100.12,26.03,68,97,1.45,ID,1738716669
252,comilla,23.4578,91.2044,15.42,61,20,1.06,BD,1738716671
253,saratovskaya,44.7103,39.2244,-0.6,87,12,0.82,RU,1738716672
254,lobujya,27.95,86.8167,-12.28,23,8,0.88,NP,1738716673
255,parfino,57.9731,31.6481,-13.31,92,0,1.31,RU,1738716675
256,hadithah,34.1397,42.3781,11.47,44,0,4.51,IQ,1738716677
257,cidreira,-30.1811,-50.2056,25.2,92,0,4.94,BR,1738716678
258,al ghayzah,16.2079,52.176,16.85,52,5,2.31,YE,1738716679
259,carutapera,-1.195,-46.02,24.38,95,100,2.14,BR,1738716680
260,prado,-17.3411,-39.2208,25.9,81,0,4.19,BR,1738716681
261,kavieng,-2.5744,150.7967,29.43,67,74,4.37,PG,1738716682
262,villa gesell,-37.2639,-56.973,19.0,61,2,9.36,AR,1738716432
263,adrar,20.5022,-10.0711,14.87,24,0,4.02,MR,1738716686
264,qamdo,31.1667,97.2333,-2.19,51,10,1.87,CN,1738716687
265,shibirghan,36.6676,65.7529,4.87,62,6,2.54,AF,1738716689
266,cacheu,12.2706,-16.1658,21.86,11,100,3.66,GW,1738716690
267,st. john's,47.5649,-52.7093,-2.24,80,20,11.83,CA,1738716543
268,iskateley,67.6803,53.1512,-7.91,94,100,5.68,RU,1738716692
269,buka,40.8108,69.1986,2.46,56,99,0.85,UZ,1738716693
270,ilovlya,49.3033,43.9796,-2.91,93,100,2.21,RU,1738716694
271,sur,22.5667,59.5289,18.23,61,0,0.8,OM,1738716696
272,port augusta,-32.5,137.7667,29.27,33,0,6.12,AU,1738716697
273,takab,36.4009,47.1133,-5.38,63,7,2.33,IR,1738716698
274,pratt,37.6439,-98.7376,-4.88,100,100,2.57,US,1738716700
275,rio grande,-32.035,-52.0986,24.59,94,1,5.98,BR,1738716444
276,acapulco de juarez,16.8634,-99.8901,23.71,74,0,2.95,MX,1738716670
277,kerikeri,-35.2268,173.9474,25.22,50,22,3.49,NZ,1738716704
278,el salto,20.3333,-104.5,17.77,37,2,2.32,MX,1738716705
279,kangding,30.0513,101.9603,4.35,61,30,1.07,CN,1738716706
280,cullowhee,35.3137,-83.1765,14.55,82,10,1.16,US,1738716707
281,madera,37.1666,-119.8343,13.19,87,100,4.11,US,1738716708
282,severo-yeniseyskiy,60.3725,93.0408,-26.91,100,71,0.79,RU,1738716710
283,saranac lake,44.3295,-74.1313,-12.82,89,0,2.06,US,1738716658
284,myeik,12.4333,98.6,24.64,84,0,2.01,MM,1738716712
285,onega,63.9061,38.1404,-23.19,99,36,2.11,RU,1738716713
286,tekari,24.9333,84.8333,15.12,54,63,2.42,IN,1738716714
287,kempsey,-31.0833,152.8333,29.41,66,100,4.02,AU,1738716716
288,bada,51.392,109.8717,-20.48,83,100,6.27,RU,1738716717
289,yangchun,22.1667,111.7833,14.62,47,72,1.96,CN,1738716718
290,ulladulla,-35.35,150.4667,22.53,77,100,5.28,AU,1738716719
291,valparaiso,-33.0393,-71.6273,20.81,37,0,1.54,CL,1738716510
292,tateyama,34.9833,139.8667,5.06,51,97,5.33,JP,1738716722
293,road town,18.4167,-64.6167,23.02,83,75,1.03,VG,1738716723
294,aktau,43.65,51.2,-2.68,63,36,3.86,KZ,1738716724
295,kailua-kona,19.6406,-155.9956,26.27,68,14,2.19,US,1738716725
296,dzhalagash,45.0833,64.6667,-3.79,71,100,5.33,KZ,1738716726
297,mirny,62.5353,113.9611,-41.93,100,98,2.08,RU,1738716727
298,bouca,6.5105,18.2733,23.33,21,100,0.97,CF,1738716729
299,lompoc,34.6391,-120.4579,13.4,92,100,7.72,US,1738716730
300,senillosa,-39.0,-68.4167,24.88,21,92,6.11,AR,1738716731
301,qingdao,36.0986,120.3719,-4.22,46,0,7.0,CN,1738716732
302,vernon,50.2581,-119.2691,-9.58,61,97,7.15,CA,1738716733
303,osvaldo cruz,-21.7967,-50.8786,20.72,96,89,3.52,BR,1738716735
304,al jawf,29.5,38.75,12.03,27,90,4.04,SA,1738716736
305,kodiak,57.79,-152.4072,2.73,70,0,2.06,US,1738716737
306,kiunga,-6.1219,141.2906,32.04,55,99,1.65,PG,1738716738
307,hithadhoo,-0.6,73.0833,27.68,68,6,4.57,MV,1738716739
308,puri,19.8,85.85,24.41,85,100,3.0,IN,1738716741
309,egilsstadir,65.2653,-14.3948,-0.05,80,75,6.17,IS,1738716742
310,palmer,42.1584,-72.3287,-1.25,40,40,9.77,US,1738716743
311,tomatlan,19.9333,-105.25,26.5,29,0,2.47,MX,1738716744
312,new norfolk,-42.7826,147.0587,19.84,30,10,1.4,AU,1738716746
313,benjamin aceval,-24.9667,-57.5667,26.78,66,9,2.39,PY,1738716747
314,malanje,-9.5402,16.341,18.06,94,100,1.47,AO,1738716748
315,asbury,42.5144,-90.7515,-6.44,40,0,5.66,US,1738716749
316,mugla,37.2303,28.3557,3.43,91,14,3.38,TR,1738716750
317,concepcion,-36.827,-73.0498,18.89,63,0,3.6,CL,1738716678
318,reggane,26.7158,0.1714,14.1,23,0,6.17,DZ,1738716753
319,swakopmund,-22.6833,14.5333,18.61,89,100,1.19,NA,1738716754
320,new amsterdam,6.25,-57.5167,24.03,92,96,2.04,GY,1738716755
321,broome,42.2506,-75.833,-4.08,74,100,6.17,US,1738716757
322,alo,6.5486,4.2686,27.11,86,67,1.81,NG,1738716758
323,severnoye,56.3491,78.3619,-8.01,97,99,2.03,RU,1738716759
324,paducah,37.0834,-88.6001,7.12,76,100,4.63,US,1738716760
325,papao,-17.75,-149.55,30.82,70,40,0.38,PF,1738716761
326,lianghu,29.9915,120.8985,7.26,57,0,2.52,CN,1738716763
327,sechura,-5.5569,-80.8222,24.4,69,100,6.9,PE,1738716764
328,nizhneangarsk,55.7833,109.55,-25.8,79,67,4.19,RU,1738716765
329,brookings,44.3114,-96.7984,-13.86,67,0,6.17,US,1738716503
330,tindouf,27.6711,-8.1474,12.25,28,0,2.57,DZ,1738716768
331,qaqortoq,60.7167,-46.0333,-19.31,64,15,5.3,GL,1738716769
332,stepnogorsk,52.3544,71.8869,-15.14,99,100,2.63,KZ,1738716770
333,hovd,48.0056,91.6419,-20.18,61,0,3.68,MN,1738716771
334,katsuura,35.1333,140.3,4.81,45,100,3.35,JP,1738716772
335,bubaque,11.2833,-15.8333,25.16,50,100,7.24,GW,1738716774
336,alamos,27.0167,-108.9333,22.52,17,0,1.93,MX,1738716775
337,shahapur,19.45,73.3333,18.32,35,0,1.34,IN,1738716776
338,likhovskoy,48.1519,40.1792,-6.99,86,18,3.39,RU,1738716777
339,skeldon,5.8833,-57.1333,24.27,91,100,2.57,GY,1738716778
340,alotau,-10.3069,150.4462,29.69,74,100,4.11,PG,1738716779
341,port-vila,-17.7338,168.3219,28.78,74,75,2.57,VU,1738716781
342,cabedelo,-6.9811,-34.8339,24.37,83,100,5.44,BR,1738716782
343,port shepstone,-30.7414,30.455,24.99,78,96,3.51,ZA,1738716783
344,remire-montjoly,4.9167,-52.2667,24.02,94,75,1.03,GF,1738716784
345,mhangura,-16.8939,30.1683,18.53,97,100,1.16,ZW,1738716785
346,chulakkurgan,43.765,69.1814,-5.89,81,100,1.12,KZ,1738716786
347,fontanelas,38.8472,-9.4372,11.2,67,1,2.07,PT,1738716788
348,akureyri,65.6835,-18.0878,-4.26,70,10,7.25,IS,1738716789
349,slave lake,55.2834,-114.769,-28.01,76,0,1.03,CA,1738716790
350,juneau,58.3019,-134.4197,-1.99,90,1,3.95,US,1738716791
351,orange,33.7,-117.7675,17.62,68,20,6.69,US,1738716347
352,san antonio de pale,-1.4014,5.6325,27.35,80,99,4.03,GQ,1738716793
353,sola,-13.8833,167.55,31.37,74,40,2.57,VU,1738716795
354,codrington,-38.2667,141.9667,19.1,48,7,8.04,AU,1738716796
355,yung shue wan,22.2333,114.1167,14.86,74,4,0.45,HK,1738716797
356,ain defla,36.2641,1.9679,6.71,86,0,1.1,DZ,1738716798
357,lianjiang,21.6467,110.2817,14.85,48,100,4.42,CN,1738716799
358,tongzhou,39.9053,116.5994,-6.94,30,0,1.0,CN,1738716800
359,vilyuysk,63.7553,121.6247,-39.21,100,63,1.35,RU,1738716802
360,tsengel,49.4783,100.8894,-16.99,59,0,9.04,MN,1738716803
361,aykhal,66.0,111.5,-30.12,82,100,2.23,RU,1738716804
362,santa cruz,-17.8,-63.1667,26.7,74,90,2.57,BO,1738716640
363,gumla,23.05,84.55,17.3,51,5,1.54,IN,1738716806
364,barranca,-10.75,-77.7667,22.0,78,100,3.01,PE,1738716807
365,rikaze,29.25,88.8833,-3.48,30,0,0.75,CN,1738716808
366,dwarka,22.2394,68.9678,19.63,57,0,5.62,IN,1738716810
367,guerrero negro,27.9769,-114.0611,15.07,83,0,5.88,MX,1738716710
368,aykol,38.1751,77.2132,-5.13,44,100,0.35,CN,1738716813
369,solwezi,-12.1688,26.3894,16.96,98,100,0.59,ZM,1738716814
370,togur,58.3631,82.8265,-24.59,100,27,1.31,RU,1738716815
371,tolanaro,-25.0319,46.9987,23.65,92,100,3.88,MG,1738716817
372,bel ombre,-4.6167,55.4167,26.45,79,20,4.8,SC,1738716818
373,naze,28.3667,129.4833,9.51,63,100,9.06,JP,1738716819
374,helong,42.5397,128.9972,-18.62,65,19,4.34,CN,1738716820
375,pyapon,16.2833,95.6833,20.11,68,1,1.99,MM,1738716821
376,murray bridge,-35.1167,139.2667,23.06,38,34,4.4,AU,1738716822
377,kuanda,56.3161,116.0806,-25.62,95,100,0.91,RU,1738716824
378,pitimbu,-7.4706,-34.8086,25.79,83,100,5.53,BR,1738716825
379,hsinchu,24.8036,120.9686,13.83,58,25,1.79,TW,1738716826
380,tabou,4.423,-7.3528,26.2,86,39,2.46,CI,1738716827
381,demre,36.2537,29.9777,10.34,70,10,2.1,TR,1738716829
382,quelimane,-17.8786,36.8883,24.59,79,100,1.18,MZ,1738716831
383,tura,25.5198,90.2201,14.96,66,0,1.44,IN,1738716832
384,bologoye,57.8799,34.1068,-13.05,92,28,1.07,RU,1738716833
385,weno,7.4515,151.8468,28.97,79,100,4.63,FM,1738716834
386,ghat,24.9647,10.1728,16.77,22,100,1.67,LY,1738716835
387,bakanas,44.8081,76.2772,-9.58,93,70,1.84,KZ,1738716836
388,margate,51.3813,1.3862,6.5,89,23,5.51,GB,1738716838
389,yigo village,13.5361,144.8886,29.16,72,75,7.72,GU,1738716839
390,turkmenbasy,40.0222,52.9552,-0.57,86,0,1.03,TM,1738716840
391,sovetskaya gavan',48.9723,140.2878,-6.75,94,100,9.59,RU,1738716841
392,marshall,34.3834,-86.3333,16.86,87,100,0.45,US,1738716842
393,sao miguel do araguaia,-13.275,-50.1628,22.81,91,100,0.88,BR,1738716843
394,kulhudhuffushi,6.6221,73.07,27.64,70,6,2.89,MV,1738716845
395,mieres,43.25,-5.7667,6.3,93,22,2.14,ES,1738716846
396,hassi messaoud,31.6804,6.0729,10.27,47,56,2.87,DZ,1738716848
397,gorno-altaysk,51.9561,85.955,-16.31,93,10,2.3,RU,1738716849
398,bonthe,7.5264,-12.505,24.66,72,100,1.78,SL,1738716851
399,intendente alvear,-35.2338,-63.592,23.66,56,100,2.28,AR,1738716852
400,sokur,55.2093,83.319,-19.22,100,100,2.71,RU,1738716853
401,mossel bay,-34.1831,22.146,19.56,83,0,5.02,ZA,1738716854
402,natal,-5.795,-35.2094,25.12,94,75,3.6,BR,1738716675
403,callao,-12.0667,-77.15,26.51,73,75,5.14,PE,1738716437
404,leua,48.2156,18.6071,-1.05,64,14,0.86,SK,1738716857
405,westport,41.1415,-73.3579,1.57,51,4,3.58,US,1738716665
406,huarmey,-10.0681,-78.1522,22.72,78,100,3.38,PE,1738716860
407,mana,5.6592,-53.7767,25.32,86,100,4.11,GF,1738716861
408,cacoal,-11.4386,-61.4472,23.1,95,100,1.28,BR,1738716682
409,winnemucca,40.973,-117.7357,16.03,20,0,3.09,US,1738716863
410,penn yan,42.6609,-77.0539,-5.08,70,100,4.63,US,1738716864
411,murzuq,25.9155,13.9184,14.91,35,100,4.33,LY,1738716866
412,east ballina,-28.8667,153.5833,24.44,76,100,0.59,AU,1738716867
413,karliova,39.2983,41.0142,-10.51,97,100,0.82,TR,1738716868
414,gangolli,13.65,74.6667,21.22,69,32,1.48,IN,1738716869
415,georgiyevka,43.0369,74.7114,-14.98,85,75,2.0,KZ,1738716870
416,chatel-guyon,45.9167,3.0667,-1.17,93,0,1.54,FR,1738716871
417,daru,-9.0763,143.2092,30.42,64,100,4.79,PG,1738716873
418,kumburgaz,41.0211,28.4772,4.95,67,100,8.17,TR,1738716874
419,lamu,-2.2717,40.902,23.63,91,100,4.82,KE,1738716875
420,gorontalo,0.5412,123.0595,26.42,90,100,1.53,ID,1738716876
421,shahpura,27.3833,75.9667,10.17,50,0,2.37,IN,1738716877
422,agdzhabedy,40.0528,47.4614,6.15,57,100,2.79,AZ,1738716878
423,ola,59.5833,151.2833,-22.87,78,8,2.8,RU,1738716879
424,novovorontsovka,47.5004,33.9175,-2.32,81,12,3.82,UA,1738716881
425,loandjili,-4.7561,11.8578,26.01,86,100,0.62,CG,1738716882
426,kingston,17.997,-76.7936,27.53,65,20,4.63,JM,1738716672
427,chake chake,-5.2459,39.7666,25.41,78,100,5.07,TZ,1738716885
428,yaguajay,22.3272,-79.2378,22.58,85,100,5.33,CU,1738716887
429,uniao,-4.5858,-42.8642,26.01,68,100,1.34,BR,1738716678
430,chiredzi,-21.05,31.6667,21.76,85,23,2.53,ZW,1738716889
431,manadhoo,5.7667,73.3833,27.36,66,100,2.14,MV,1738716890
432,cockburn town,21.4612,-71.1419,24.96,70,23,8.55,TC,1738716891
433,sanctuary point,-35.1114,150.629,22.63,80,100,6.1,AU,1738716892
434,shingu,33.7333,135.9833,3.69,41,4,6.34,JP,1738716893
435,sitka,57.0531,-135.33,6.94,26,0,2.06,US,1738716895
436,hammerfest,70.6634,23.6821,-8.75,79,75,9.26,NO,1738716896
437,rongelap,11.1635,166.8941,26.56,80,87,9.12,MH,1738716897
438,kolonia town,6.964,158.206,30.0,74,100,5.14,FM,1738716898
439,tomohon,1.3346,124.8392,25.52,78,100,1.08,ID,1738716899
440,lido di ostia,41.7321,12.2765,8.25,61,0,4.63,IT,1738716900
441,malindi,-3.2175,40.1191,23.86,87,100,4.45,KE,1738716902
442,kawant,22.1,74.05,15.39,26,5,0.61,IN,1738716903
443,mata-utu,-13.2816,-176.1745,28.5,70,40,2.69,WF,1738716904
444,noumea,-22.2763,166.4572,28.9,99,82,5.98,NC,1738716905
445,barmer,25.75,71.3833,11.29,27,0,1.69,IN,1738716906
446,kone,-21.0595,164.8658,24.98,95,100,1.73,NC,1738716908
447,charters towers,-20.1,146.2667,23.62,94,100,5.07,AU,1738716909
448,vargem grande,-3.5431,-43.9158,22.94,98,29,1.11,BR,1738716910
449,dassa-zoume,7.75,2.1833,27.89,61,86,1.89,BJ,1738716911
450,kharovsk,59.9642,40.1912,-6.83,97,100,1.38,RU,1738716912
451,pionerskiy,54.9508,20.2275,0.91,81,100,4.54,RU,1738716914
452,camayenne,9.535,-13.6878,27.05,83,75,2.06,GN,1738716915
453,tadine,-21.55,167.8833,26.51,79,100,3.92,NC,1738716916
454,susuman,62.7833,148.1667,-40.56,94,81,0.92,RU,1738716917
455,kachug,53.9606,105.8817,-18.54,82,100,6.41,RU,1738716918
456,nuuk,64.1835,-51.7216,-12.66,61,82,7.72,GL,1738716919
457,morondava,-20.2833,44.2833,26.76,83,100,1.9,MG,1738716921
458,yaren,-0.5472,166.916,27.06,83,100,8.07,NR,1738716922
459,la ronge,55.1001,-105.2842,-20.86,65,0,2.06,CA,1738716923
460,eyl,7.9803,49.8164,21.16,71,44,7.75,SO,1738716924
461,dilling,12.05,29.65,22.18,27,1,5.18,SD,1738716925
462,sebdou,34.637,-1.3314,4.56,97,36,1.53,DZ,1738716926
463,prince rupert,54.3161,-130.3201,1.05,20,0,6.69,CA,1738716928
464,antonio enes,-16.2325,39.9086,25.14,88,100,3.87,MZ,1738716929
465,pierre,44.3683,-100.351,-10.4,62,100,7.2,US,1738716636
466,kayangel,8.0823,134.7173,28.0,78,100,8.83,PW,1738716931
467,waat,51.1454,6.4958,1.54,92,100,2.06,DE,1738716932
468,port saint john's,-31.6229,29.5448,26.04,86,100,2.64,ZA,1738716934
469,georgetown,5.4112,100.3354,26.96,72,20,3.6,MY,1738716919
470,puerto baquerizo moreno,-0.9,-89.6,24.39,86,8,3.93,EC,1738716936
471,oranjemund,-28.55,16.4333,16.79,96,94,4.18,NA,1738716937
472,tam ky,15.5667,108.4833,18.83,91,99,1.44,VN,1738716939
473,comodoro rivadavia,-45.8667,-67.5,15.92,59,0,8.23,AR,1738716730
474,saint-joseph,-21.3667,55.6167,26.21,80,98,1.2,RE,1738716941
475,sisimiut,66.9395,-53.6735,-19.67,95,100,1.69,GL,1738716942
476,thabazimbi,-24.5917,27.4116,23.6,56,3,1.47,ZA,1738716944
477,kingscliff,-28.2667,153.5667,28.89,65,75,5.14,AU,1738716945
478,arar,30.9753,41.0381,10.01,27,0,4.12,SA,1738716946
479,coquimbo,-29.9533,-71.3436,16.85,94,20,3.6,CL,1738716549
480,harper,4.375,-7.7169,26.39,85,12,2.63,LR,1738716948
481,taounate,34.5,-4.8333,8.69,79,0,2.18,MA,1738716949
482,ambon,-3.6954,128.1814,29.08,100,40,1.03,ID,1738716785
483,keelung,25.1283,121.7419,15.61,46,95,7.27,TW,1738716952
484,saudarkrokur,65.7461,-19.6394,-3.33,77,33,7.85,IS,1738716953
485,vanimo,-2.6741,141.3028,29.54,65,100,1.04,PG,1738716954
486,ambazac,45.9598,1.4006,6.18,81,0,1.05,FR,1738716955
487,buenavista del norte,28.3746,-16.861,17.82,66,18,8.36,ES,1738716956
488,cromer,52.9312,1.2989,6.75,87,1,7.49,GB,1738716706
489,riviere-du-loup,47.8304,-69.5342,-9.51,57,72,3.6,CA,1738716660
490,rosetta,31.4044,30.4164,15.24,81,9,6.37,EG,1738716960
491,agat village,13.3886,144.6585,29.52,81,20,7.72,GU,1738716961
492,qarqaraly,49.4058,75.4742,-10.23,94,96,5.5,KZ,1738716962
493,manokwari,-0.8667,134.0833,27.55,74,100,1.57,ID,1738716963
494,bosaso,11.2842,49.1816,19.8,74,5,1.68,SO,1738716965
495,moose jaw,50.4001,-105.5344,-18.86,78,100,5.66,CA,1738716772
496,inari,68.906,27.0288,-13.39,85,100,6.01,FI,1738716968
497,camiri,-20.05,-63.5167,22.96,53,4,1.7,BO,1738716969
498,lauro de freitas,-12.8944,-38.3272,27.01,74,40,4.63,BR,1738716971
499,crane,31.3974,-102.3501,21.67,60,2,8.03,US,1738716972
500,upington,-28.4478,21.2561,23.67,49,100,6.35,ZA,1738716974
501,laguna,38.421,-121.4238,14.15,89,100,15.43,US,1738716975
502,coahuayana de hidalgo,18.7,-103.6583,23.86,85,1,1.46,MX,1738716976
503,nuku'alofa,-21.1333,-175.2,24.19,94,100,3.09,TO,1738716978
504,mingyue,43.1069,128.9217,-18.5,67,89,6.22,CN,1738716979
505,labasa,-16.4167,179.3833,27.7,81,100,2.29,FJ,1738716980
506,kentville,45.0835,-64.4988,-4.86,74,75,5.14,CA,1738716981
507,el haouaria,37.05,11.0144,11.01,85,35,3.38,TN,1738716982
508,chilecito,-29.1619,-67.4974,25.8,51,0,3.52,AR,1738716773
509,tymovskoye,50.8456,142.655,-3.02,85,100,5.88,RU,1738716985
510,pathein,16.7833,94.7333,21.51,71,1,1.42,MM,1738716986
511,sao raimundo nonato,-9.0153,-42.6994,23.25,53,29,0.67,BR,1738716987
512,leninskoye,41.7589,69.3864,-0.88,56,100,1.95,KZ,1738716988
513,bamboo flat,11.7,92.7167,23.05,94,20,1.03,IN,1738716989
514,valdivia,-39.8142,-73.2459,20.05,77,73,1.78,CL,1738716621
515,balqash,46.8481,74.995,-8.6,71,0,10.03,KZ,1738716993
516,huadian,42.9633,126.7478,-20.45,94,49,2.98,CN,1738716994
517,fauske,67.2588,15.3918,-2.81,78,100,5.13,NO,1738716995
518,gadzhiyevo,69.2551,33.3362,-17.47,95,100,7.49,RU,1738716996
519,nova xavantina,-14.6667,-52.35,22.19,97,99,1.45,BR,1738716998
520,humahuaca,-23.2054,-65.3505,15.35,64,10,3.53,AR,1738716999
521,keflavik,64.0049,-22.5624,-0.76,93,75,12.35,IS,1738717000
522,san fernando,15.0286,120.6898,24.85,68,73,2.67,PH,1738717001
523,maceio,-9.6658,-35.7353,26.69,78,20,3.09,BR,1738716894
524,zaozersk,69.4005,32.4476,-17.96,89,100,4.11,RU,1738717004
525,ketchikan,55.3422,-131.6461,1.26,18,0,0.0,US,1738717005
526,kodinsk,58.6881,99.1844,-14.15,84,100,3.22,RU,1738717007
527,neya,58.2972,43.8681,-3.55,93,100,3.15,RU,1738717009
528,safotu,-13.4513,-172.4018,28.2,75,20,2.82,WS,1738717010
529,three points,32.0767,-111.3137,21.52,11,0,4.68,US,1738717012
530,winchester,51.0651,-1.3187,4.83,95,0,2.06,GB,1738717013
531,roma,43.2128,-75.4557,-5.92,86,100,4.12,US,1738717015
532,homer,59.6425,-151.5483,-1.22,70,75,0.89,US,1738716807
533,moranbah,-22.0016,148.0466,24.56,81,100,6.16,AU,1738717017
534,galle,6.0367,80.217,25.08,83,29,2.77,LK,1738717018
535,miranda,3.2499,-76.2281,20.55,94,100,2.45,CO,1738717019
536,antsirabe,-19.85,47.0333,17.59,98,100,1.24,MG,1738717021
537,cidade velha,14.9167,-23.6167,20.25,65,90,5.7,CV,1738717022
538,vila franca do campo,37.7167,-25.4333,18.27,99,100,3.0,PT,1738717024
539,nova sintra,14.8667,-24.7167,21.62,71,50,10.17,CV,1738717025
540,kununurra,-15.7667,128.7333,31.99,62,49,2.57,AU,1738716926
541,bolgar,54.95,49.0667,-6.97,92,100,3.46,RU,1738717029
542,cangucu,-31.395,-52.6756,22.39,93,1,3.55,BR,1738717031
543,siracusa,37.0881,15.2792,11.84,87,41,1.79,IT,1738717032
544,yancheng,33.3856,120.1253,2.26,45,70,2.01,CN,1738717034
545,pleiku,13.9833,108.0,17.3,70,1,2.95,VN,1738717035
546,celestun,20.8667,-90.4,24.15,78,2,7.52,MX,1738717036
547,luocheng,29.3848,104.0286,8.0,91,100,2.36,CN,1738717037
548,srandakan,-7.9386,110.2506,25.65,85,100,2.62,ID,1738717038
549,lhasa,29.65,91.1,1.05,30,2,1.64,CN,1738717040
550,sao vicente,-23.9631,-46.3919,23.86,88,100,2.24,BR,1738717041
551,port blair,11.6667,92.75,23.02,94,20,1.03,IN,1738717042
552,likisa,-8.6695,125.6875,23.01,77,100,1.44,TL,1738717043
553,letlhakeng,-24.0944,25.0298,22.93,46,6,2.95,BW,1738717045
554,bikenibeu village,1.3673,173.1241,29.98,74,20,6.69,KI,1738717046
555,dalnerechensk,45.9339,133.7225,-17.85,92,100,6.54,RU,1738716853
556,sampit,-2.5333,112.95,27.74,74,60,2.46,ID,1738717048
557,wad medani,14.4012,33.5199,24.51,30,0,4.43,SD,1738717049
558,gadag,15.4167,75.6167,19.56,33,10,2.28,IN,1738717051
559,basoko,1.2391,23.616,23.98,63,100,1.22,CD,1738717052
560,dryden,49.7833,-92.7503,-19.84,65,0,3.6,CA,1738717053
561,uusikaupunki,60.8004,21.4084,1.63,92,99,7.33,FI,1738717054
562,talara,-4.5772,-81.2719,25.42,69,0,7.2,PE,1738717055
563,el calafate,-50.3408,-72.2768,10.48,61,88,4.73,AR,1738717057
564,fort stockton,30.894,-102.8793,23.42,41,0,3.13,US,1738717058
565,cambria,35.5641,-121.0808,12.91,94,100,6.26,US,1738717059
566,wynyard,-41.0,145.7167,17.33,61,97,1.79,AU,1738717060
567,chemin grenier,-20.4872,57.4656,26.77,87,0,2.7,MU,1738717061
